% program   : RTKPOST ver.demo5 b34g
% inp file  : D:\Amaster\4semester\Navi\U5\data1\vn310-roverobs.sec
% inp file  : D:\Amaster\4semester\Navi\U5\data1\INSA11DEU_R_20241700700_01H_01S_MO.rnx
% inp file  : D:\Amaster\4semester\Navi\U5\data1\INSA11DEU_R_20241700700_01H_MN.rnx
% obs start : 2024/06/18 07:16:49.8 GPST (week2319 199009.8s)
% obs end   : 2024/06/18 07:29:47.4 GPST (week2319 199787.4s)
% pos mode  : DGPS
% freqs     : L1+L2/E5b+L5
% solution  : Forward
% elev mask : 5.0 deg
% dynamics  : off
% tidecorr  : off
% ionos opt : OFF
% tropo opt : OFF
% ephemeris : Broadcast
% navi sys  : GPS GLONASS Galileo BDS
% antenna1  :                       ( 0.0000  0.0000  0.0000)
% antenna2  :                       ( 0.0000  0.0000 -0.0855)
% ref pos   : 48.780701933    9.171587102   326.5690
%
% (lat/lon/height=WGS84/ellipsoidal,Q=1:fix,2:float,3:sbas,4:dgps,5:single,6:ppp,ns=# of satellites)
%  GPST                  latitude(deg) longitude(deg)  height(m)   Q  ns   sdn(m)   sde(m)   sdu(m)  sdne(m)  sdeu(m)  sdun(m) age(s)  ratio
2024/06/18 07:16:49.800   48.781331707    9.173333818   304.8674   4  13   1.5881   1.3623   2.8237  -0.3536   1.0372   0.5765  -0.20    0.0
2024/06/18 07:16:50.000   48.781331909    9.173333993   304.8925   4  13   1.5881   1.3623   2.8236  -0.3536   1.0372   0.5765   0.00    0.0
2024/06/18 07:16:50.200   48.781332938    9.173334234   304.9060   4  13   1.5881   1.3623   2.8236  -0.3536   1.0372   0.5764   0.20    0.0
2024/06/18 07:16:50.400   48.781333230    9.173334164   304.8135   4  13   1.5881   1.3623   2.8236  -0.3536   1.0373   0.5763   0.40    0.0
2024/06/18 07:16:50.600   48.781333283    9.173334276   304.7982   4  13   1.5881   1.3623   2.8235  -0.3535   1.0373   0.5762  -0.40    0.0
2024/06/18 07:16:50.800   48.781333859    9.173334308   304.7627   4  13   1.5881   1.3623   2.8235  -0.3535   1.0373   0.5762  -0.20    0.0
2024/06/18 07:16:51.000   48.781334507    9.173334093   304.7324   4  13   1.5880   1.3624   2.8235  -0.3535   1.0374   0.5761   0.00    0.0
2024/06/18 07:16:51.200   48.781334329    9.173333243   304.6288   4  13   1.5880   1.3624   2.8234  -0.3535   1.0374   0.5760   0.20    0.0
2024/06/18 07:16:51.400   48.781333727    9.173333263   304.5707   4  13   1.5880   1.3624   2.8234  -0.3535   1.0374   0.5759   0.40    0.0
2024/06/18 07:16:51.600   48.781333306    9.173332299   304.8095   4  13   1.5880   1.3624   2.8233  -0.3534   1.0375   0.5759  -0.40    0.0
2024/06/18 07:16:51.800   48.781335411    9.173331879   305.4967   4  13   1.6646   1.3627   3.0223  -0.3702   1.0248   0.9326  -0.20    0.0
2024/06/18 07:16:52.000   48.781334952    9.173331618   305.5279   4  13   1.6646   1.3627   3.0222  -0.3701   1.0249   0.9325   0.00    0.0
2024/06/18 07:16:52.200   48.781334359    9.173330870   305.4637   4  13   1.6646   1.3627   3.0222  -0.3701   1.0249   0.9325   0.20    0.0
2024/06/18 07:16:52.400   48.781333592    9.173330957   305.4502   4  13   1.6646   1.3627   3.0222  -0.3701   1.0249   0.9324   0.40    0.0
2024/06/18 07:16:52.600   48.781333849    9.173329982   305.4240   4  13   1.6645   1.3627   3.0221  -0.3701   1.0250   0.9324  -0.40    0.0
2024/06/18 07:16:52.800   48.781333560    9.173329984   305.3783   4  13   1.6645   1.3627   3.0221  -0.3701   1.0250   0.9324  -0.20    0.0
2024/06/18 07:16:53.000   48.781331723    9.173329747   304.8668   4  13   1.5880   1.3625   2.8231  -0.3533   1.0377   0.5754   0.00    0.0
2024/06/18 07:16:53.200   48.781331405    9.173329678   304.8526   4  13   1.5880   1.3626   2.8231  -0.3533   1.0378   0.5753   0.20    0.0
2024/06/18 07:16:53.400   48.781331035    9.173329697   304.7983   4  13   1.5879   1.3626   2.8230  -0.3533   1.0378   0.5752   0.40    0.0
2024/06/18 07:16:53.600   48.781331495    9.173330361   304.6990   4  13   1.5879   1.3626   2.8230  -0.3533   1.0378   0.5751  -0.40    0.0
2024/06/18 07:16:53.800   48.781330070    9.173330231   304.3728   4  13   1.5879   1.3626   2.8230  -0.3533   1.0379   0.5751  -0.20    0.0
2024/06/18 07:16:54.000   48.781330570    9.173330107   304.4802   4  13   1.5879   1.3626   2.8229  -0.3532   1.0379   0.5750   0.00    0.0
2024/06/18 07:16:54.200   48.781330337    9.173330486   304.4623   4  13   1.5879   1.3626   2.8229  -0.3532   1.0379   0.5749   0.20    0.0
2024/06/18 07:16:54.400   48.781329702    9.173330839   304.2119   4  13   1.5879   1.3627   2.8229  -0.3532   1.0380   0.5748   0.40    0.0
2024/06/18 07:16:54.600   48.781329412    9.173330937   304.1284   4  13   1.5879   1.3627   2.8228  -0.3532   1.0380   0.5748  -0.40    0.0
2024/06/18 07:16:54.800   48.781328983    9.173330843   304.0348   4  13   1.5879   1.3627   2.8228  -0.3532   1.0380   0.5747  -0.20    0.0
2024/06/18 07:16:55.000   48.781328453    9.173331168   303.9861   4  13   1.5879   1.3627   2.8227  -0.3531   1.0381   0.5746   0.00    0.0
2024/06/18 07:16:55.200   48.781327660    9.173331461   303.8166   4  13   1.5879   1.3627   2.8227  -0.3531   1.0381   0.5745   0.20    0.0
2024/06/18 07:16:55.400   48.781328064    9.173331568   304.0018   4  13   1.5879   1.3627   2.8227  -0.3531   1.0381   0.5745   0.40    0.0
2024/06/18 07:16:55.600   48.781327923    9.173330839   304.2486   4  13   1.5879   1.3628   2.8226  -0.3531   1.0382   0.5744  -0.40    0.0
2024/06/18 07:16:55.800   48.781315166    9.173314509   301.5773   4  12   1.7306   1.4851   3.1064   0.5306   1.3578   1.1058  -0.20    0.0
2024/06/18 07:16:56.600   48.781319964    9.173318320   302.1812   4  11   1.9640   1.5687   3.2519   0.8664   1.5264   1.4546  -0.40    0.0
2024/06/18 07:16:57.000   48.781317928    9.173325597   302.9346   4  10   2.2555   3.0938   5.1682  -1.4854   3.6049  -1.5253   0.00    0.0
2024/06/18 07:16:57.400   48.781311057    9.173309467   300.6659   4  12   1.7544   1.5415   3.1886   0.6332   1.2439   1.0068   0.40    0.0
2024/06/18 07:16:57.800   48.781318814    9.173318431   301.5279   4  12   1.7544   1.5415   3.1886   0.6332   1.2440   1.0067  -0.20    0.0
2024/06/18 07:16:58.200   48.781321592    9.173320282   301.5300   4  12   1.7544   1.5416   3.1885   0.6332   1.2440   1.0066   0.20    0.0
2024/06/18 07:16:59.800   48.781335771    9.173329845   303.1444   4  12   1.7303   1.4855   3.1058   0.5309   1.3585   1.1048  -0.20    0.0
2024/06/18 07:17:00.200   48.781325260    9.173322501   302.1116   4  12   1.7303   1.4856   3.1058   0.5309   1.3585   1.1047   0.20    0.0
2024/06/18 07:17:00.600   48.781327704    9.173325666   302.8222   4  12   1.7302   1.4856   3.1057   0.5309   1.3586   1.1046  -0.40    0.0
2024/06/18 07:17:01.800   48.781325459    9.173326061   302.5944   4  12   1.7301   1.4858   3.1055   0.5310   1.3588   1.1043  -0.20    0.0
2024/06/18 07:17:02.200   48.781330498    9.173330576   303.0001   4  12   1.8695   1.5423   3.5980   0.6505   1.2676   1.4457   0.20    0.0
2024/06/18 07:17:02.600   48.781328420    9.173331278   302.6211   4  12   1.7301   1.4859   3.1054   0.5310   1.3590   1.1041  -0.40    0.0
2024/06/18 07:17:03.000   48.781327445    9.173330729   302.5130   4  12   1.7301   1.4859   3.1054   0.5311   1.3590   1.1040   0.00    0.0
2024/06/18 07:17:04.200   48.781323313    9.173327863   302.4467   4  12   1.7300   1.4860   3.1052   0.5311   1.3592   1.1037   0.20    0.0
2024/06/18 07:17:05.400   48.781318761    9.173326434   302.4247   4  10   2.1605   1.5055   4.0055   0.7208   1.4236   1.9694   0.40    0.0
2024/06/18 07:17:06.000   48.781316942    9.173324720   302.7581   4  10   2.1606   1.5055   4.0055   0.7208   1.4237   1.9694   0.00    0.0
2024/06/18 07:17:07.600   48.781326355    9.173319705   304.4396   4  12   1.8647   1.4921   3.4282   0.6105   1.4275   1.4929  -0.40    0.0
2024/06/18 07:17:08.000   48.781327747    9.173319285   304.7035   4  12   1.8646   1.4921   3.4281   0.6105   1.4276   1.4929   0.00    0.0
2024/06/18 07:17:08.400   48.781324474    9.173318237   304.0032   4  12   1.8646   1.4922   3.4280   0.6106   1.4277   1.4928   0.40    0.0
2024/06/18 07:17:08.800   48.781323629    9.173320286   304.3262   4  12   1.8646   1.4922   3.4280   0.6106   1.4278   1.4927  -0.20    0.0
2024/06/18 07:17:09.200   48.781322997    9.173321471   304.2929   4  12   1.8646   1.4922   3.4279   0.6106   1.4278   1.4927   0.20    0.0
2024/06/18 07:17:09.600   48.781318784    9.173320254   303.5348   4  12   1.8645   1.4923   3.4279   0.6107   1.4279   1.4926  -0.40    0.0
2024/06/18 07:17:10.400   48.781303871    9.173318869   300.7317   4  10   2.1608   1.5060   4.0051   0.7212   1.4247   1.9693   0.40    0.0
2024/06/18 07:17:11.000   48.781301495    9.173320729   300.5467   4  10   2.1608   1.5060   4.0050   0.7212   1.4249   1.9693   0.00    0.0
2024/06/18 07:17:11.600   48.781302109    9.173324150   301.2665   4  11   1.8935   1.4874   3.3565   0.5611   1.3800   1.4829  -0.40    0.0
2024/06/18 07:17:12.000   48.781326140    9.173326501   305.9123   4  12   1.7294   1.4869   3.1041   0.5316   1.3606   1.1019   0.00    0.0
2024/06/18 07:17:12.400   48.781328869    9.173326129   306.3824   4  12   1.7293   1.4869   3.1040   0.5316   1.3607   1.1018   0.40    0.0
2024/06/18 07:17:12.800   48.781325057    9.173324620   305.5452   4  12   1.7293   1.4870   3.1039   0.5316   1.3607   1.1017  -0.20    0.0
2024/06/18 07:17:13.600   48.781328110    9.173324517   306.0649   4  12   1.7293   1.4871   3.1038   0.5317   1.3609   1.1015  -0.40    0.0
2024/06/18 07:17:14.000   48.781325553    9.173322609   305.5591   4  12   1.7292   1.4871   3.1038   0.5317   1.3609   1.1014   0.00    0.0
2024/06/18 07:17:15.000   48.781321870    9.173321024   304.4941   4  12   1.7291   1.4872   3.1036   0.5317   1.3611   1.1012   0.00    0.0
2024/06/18 07:17:15.400   48.781318437    9.173320587   303.8787   4  12   1.7291   1.4873   3.1036   0.5318   1.3612   1.1011   0.40    0.0
2024/06/18 07:17:16.000   48.781319361    9.173320030   303.7446   4  12   1.7291   1.4873   3.1035   0.5318   1.3613   1.1009   0.00    0.0
2024/06/18 07:17:16.400   48.781322017    9.173319208   304.0367   4  12   1.7290   1.4874   3.1034   0.5318   1.3614   1.1008   0.40    0.0
2024/06/18 07:17:17.400   48.781322972    9.173317814   303.8790   4  12   1.7290   1.4875   3.1033   0.5319   1.3615   1.1006   0.40    0.0
2024/06/18 07:17:17.800   48.781324554    9.173320371   304.4835   4  12   1.7289   1.4875   3.1032   0.5319   1.3616   1.1005  -0.20    0.0
2024/06/18 07:17:18.800   48.781314139    9.173320821   302.7723   4  11   1.8933   1.4882   3.3554   0.5614   1.3812   1.4818  -0.20    0.0
2024/06/18 07:17:19.400   48.781315493    9.173321461   303.2243   4  11   1.8932   1.4883   3.3553   0.5615   1.3813   1.4817   0.40    0.0
2024/06/18 07:17:20.200   48.781284095    9.173254378   296.0146   4  13   1.5868   1.3649   2.8184  -0.3509   1.0424   0.5652   0.20    0.0
2024/06/18 07:17:20.400   48.781293074    9.173265693   297.8282   4  13   1.5868   1.3649   2.8184  -0.3509   1.0425   0.5652   0.40    0.0
2024/06/18 07:17:20.600   48.781298407    9.173272607   298.7830   4  13   1.5868   1.3649   2.8184  -0.3509   1.0425   0.5651  -0.40    0.0
2024/06/18 07:17:20.800   48.781304912    9.173281164   300.1284   4  13   1.5868   1.3649   2.8183  -0.3508   1.0425   0.5650  -0.20    0.0
2024/06/18 07:17:21.000   48.781310034    9.173288266   301.2219   4  13   1.5868   1.3650   2.8183  -0.3508   1.0426   0.5649   0.00    0.0
2024/06/18 07:17:21.200   48.781312965    9.173291578   301.8780   4  13   1.5868   1.3650   2.8183  -0.3508   1.0426   0.5649   0.20    0.0
2024/06/18 07:17:21.400   48.781315448    9.173295534   302.3225   4  13   1.5868   1.3650   2.8182  -0.3508   1.0426   0.5648   0.40    0.0
2024/06/18 07:17:21.600   48.781318767    9.173297935   303.2057   4  13   1.5868   1.3650   2.8182  -0.3508   1.0427   0.5647  -0.40    0.0
2024/06/18 07:17:21.800   48.781317558    9.173298994   303.0537   4  13   1.5867   1.3650   2.8182  -0.3508   1.0427   0.5646  -0.20    0.0
2024/06/18 07:17:22.000   48.781316938    9.173299980   302.9546   4  13   1.5867   1.3651   2.8181  -0.3507   1.0427   0.5646   0.00    0.0
2024/06/18 07:17:22.200   48.781317345    9.173301018   303.0257   4  13   1.5867   1.3651   2.8181  -0.3507   1.0428   0.5645   0.20    0.0
2024/06/18 07:17:22.400   48.781317388    9.173301909   303.0710   4  13   1.5867   1.3651   2.8181  -0.3507   1.0428   0.5644   0.40    0.0
2024/06/18 07:17:22.600   48.781321756    9.173307831   303.4125   4  12   1.7184   1.3961   2.8605   0.2648   1.1096   0.8017  -0.40    0.0
2024/06/18 07:17:23.600   48.781240220    9.173187961   316.5420   4   9   1.8625   1.7406   3.2259   0.4876   0.1540   0.9330  -0.40    0.0
2024/06/18 07:17:24.000   48.781312572    9.173315872   301.9354   4  10   1.8625   1.7407   3.2258   0.4876   0.1543   0.9328   0.00    0.0
2024/06/18 07:17:24.400   48.781244493    9.173115618   331.3559   4  10   2.0663   1.9733   3.6978   0.8983  -1.0799   0.9588   0.40    0.0
2024/06/18 07:17:26.200   48.781336602    9.173299382   310.3465   4  10   2.3188   1.7860   3.4421   1.2404   0.2405  -0.2715   0.20    0.0
2024/06/18 07:17:26.600   48.781345620    9.173289272   311.5435   4  10   2.5606   2.0589   3.5011  -0.9779   0.1665   1.4669  -0.40    0.0
2024/06/18 07:17:27.200   48.781345406    9.173300892   313.7700   4  13   1.6681   1.4694   3.2144  -0.2808   0.8295   0.8514   0.20    0.0
2024/06/18 07:17:27.600   48.781336158    9.173294688   313.3281   4  13   1.6681   1.4695   3.2143  -0.2806   0.8297   0.8513  -0.40    0.0
2024/06/18 07:17:28.200   48.781342719    9.173292865   315.1897   4  13   1.6681   1.4695   3.2142  -0.2805   0.8298   0.8512   0.20    0.0
2024/06/18 07:17:28.600   48.781329889    9.173291260   312.5555   4  12   1.9049   1.6055   3.2238   0.7184   0.7260   0.7029  -0.40    0.0
2024/06/18 07:17:29.600   48.781328848    9.173284073   313.7607   4  12   1.8338   1.5096   3.2722   0.4294   0.9495   1.0920  -0.40    0.0
2024/06/18 07:17:31.400   48.781328621    9.173275737   313.1991   4  12   1.8336   1.5097   3.2718   0.4297   0.9499   1.0914   0.40    0.0
2024/06/18 07:17:32.600   48.781328419    9.173263358   316.6022   4  11   1.8318   1.5285   3.6478  -0.2866  -0.0726   1.0490  -0.40    0.0
2024/06/18 07:17:33.000   48.781369174    9.173244353   317.5929   4  10   3.0385   1.9923   4.0903  -1.6552  -1.0223   2.5112   0.00    0.0
2024/06/18 07:17:33.400   48.781357428    9.173242025   320.1797   4   9   3.1373   2.0023   4.2233  -1.6075  -1.1204   2.3421   0.40    0.0
2024/06/18 07:17:33.800   48.781357545    9.173241697   320.1583   4   9   3.1373   2.0024   4.2232  -1.6076  -1.1204   2.3421  -0.20    0.0
2024/06/18 07:17:34.600   48.781327732    9.173270515   314.1463   4  11   1.9271   1.5572   3.3921   0.6412   0.7494   0.8093  -0.40    0.0
2024/06/18 07:17:35.400   48.781321773    9.173280263   310.6797   4  12   1.6759   1.6477   3.3059   0.2105   0.3359   0.7711   0.40    0.0
2024/06/18 07:17:37.400   48.781328659    9.173295181   311.4241   4  13   1.6679   1.4702   3.2125  -0.2778   0.8327   0.8493   0.40    0.0
2024/06/18 07:17:37.800   48.781343059    9.173310469   311.5841   4  13   1.6678   1.4702   3.2124  -0.2777   0.8328   0.8493  -0.20    0.0
2024/06/18 07:17:38.200   48.781340797    9.173310182   311.9751   4  13   1.6678   1.4702   3.2124  -0.2776   0.8329   0.8492   0.20    0.0
2024/06/18 07:17:38.600   48.781339016    9.173302230   312.8819   4  13   1.6678   1.4703   3.2123  -0.2775   0.8331   0.8491  -0.40    0.0
2024/06/18 07:17:39.000   48.781331914    9.173292938   309.2713   4  12   1.8723   1.6138   3.6103   0.6993   1.3381   1.4570   0.00    0.0
2024/06/18 07:17:40.600   48.781320143    9.173286284   309.0038   4  10   2.1698   1.6442   4.3636   0.7883   1.2041   1.9714  -0.40    0.0
2024/06/18 07:17:41.800   48.781305716    9.173275671   306.1562   4  12   1.8722   1.6141   3.6100   0.6998   1.3390   1.4568  -0.20    0.0
2024/06/18 07:17:44.400   48.781300209    9.173268654   308.4385   4  11   1.9278   1.6444   3.7470   0.7964   1.2168   1.2882   0.40    0.0
2024/06/18 07:17:44.800   48.781307790    9.173272996   307.0203   4  12   1.8721   1.6144   3.6098   0.7003   1.3398   1.4565  -0.20    0.0
2024/06/18 07:17:45.400   48.781308032    9.173271978   307.2279   4  12   1.8720   1.6145   3.6097   0.7004   1.3400   1.4565   0.40    0.0
2024/06/18 07:17:45.800   48.781306583    9.173272320   307.3557   4  12   1.8720   1.6146   3.6097   0.7005   1.3401   1.4564  -0.20    0.0
2024/06/18 07:17:47.400   48.781268974    9.173185351   329.4368   4  11   1.6756   1.6480   3.3038   0.2145   0.3458   0.7685   0.40    0.0
2024/06/18 07:17:48.200   48.781321917    9.173279409   313.1214   4  12   1.6756   1.6481   3.3037   0.2147   0.3465   0.7684   0.20    0.0
2024/06/18 07:17:50.000   48.781249950    9.173170534   327.6097   4  11   1.6755   1.6481   3.3034   0.2153   0.3479   0.7680   0.00    0.0
2024/06/18 07:17:51.600   48.781313061    9.173285977   311.8035   4  12   1.6755   1.6482   3.3031   0.2158   0.3492   0.7676  -0.40    0.0
2024/06/18 07:17:52.200   48.781220201    9.173175762   325.2895   4   9   1.9302   2.0632   3.8605   0.3459   1.5383   1.2288   0.20    0.0
2024/06/18 07:17:52.800   48.781323232    9.173286564   305.6854   4   9   3.0503   3.4578   5.4197  -1.2852   3.3970  -2.2090  -0.20    0.0
2024/06/18 07:17:53.400   48.781321090    9.173287390   305.5173   4   9   3.0504   3.4581   5.4198  -1.2856   3.3973  -2.2094   0.40    0.0
2024/06/18 07:17:55.000   48.781280243    9.173263640   305.9632   4  12   1.8717   1.6156   3.6089   0.7020   1.3429   1.4557   0.00    0.0
2024/06/18 07:17:55.600   48.781273620    9.173271180   306.7008   4  12   1.8717   1.6156   3.6089   0.7021   1.3431   1.4556  -0.40    0.0
2024/06/18 07:17:56.000   48.781274202    9.173263840   305.1033   4  12   1.8717   1.6157   3.6089   0.7021   1.3432   1.4556   0.00    0.0
2024/06/18 07:17:56.400   48.781270899    9.173250271   303.6741   4  12   1.8716   1.6157   3.6088   0.7022   1.3433   1.4556   0.40    0.0
2024/06/18 07:17:57.400   48.781306518    9.173291015   311.5445   4  13   1.6673   1.4716   3.2090  -0.2720   0.8389   0.8454   0.40    0.0
2024/06/18 07:17:58.000   48.781252989    9.173191859   329.3349   4  12   1.6753   1.6483   3.3021   0.2179   0.3544   0.7663   0.00    0.0
2024/06/18 07:17:58.400   48.781266441    9.173243127   305.9180   4  11   1.8769   1.7714   3.7009   0.7724   1.1001   1.4148   0.40    0.0
2024/06/18 07:17:58.800   48.781274424    9.173255452   306.1477   4  11   1.8769   1.7714   3.7009   0.7725   1.1002   1.4147  -0.20    0.0
2024/06/18 07:17:59.200   48.781218737    9.173154299   322.5796   4  11   1.8769   1.7715   3.7009   0.7725   1.1004   1.4147   0.20    0.0
2024/06/18 07:17:59.600   48.781255650    9.173250060   307.4773   4  10   2.3672   3.3322   5.3803  -1.8614   3.4896  -1.9049  -0.40    0.0
2024/06/18 07:18:00.000   48.781262457    9.173239601   306.1398   4  11   1.8769   1.7715   3.7008   0.7726   1.1007   1.4146   0.00    0.0
2024/06/18 07:18:00.400   48.781251105    9.173243875   307.6502   4  10   2.3672   3.3326   5.3803  -1.8617   3.4900  -1.9052   0.40    0.0
2024/06/18 07:18:00.800   48.781212081    9.173141903   321.9382   4  11   1.8769   1.7716   3.7008   0.7727   1.1010   1.4146  -0.20    0.0
2024/06/18 07:18:01.600   48.781263891    9.173199966   332.2370   4  12   1.6752   1.6484   3.3015   0.2191   0.3572   0.7655  -0.40    0.0
2024/06/18 07:18:02.600   48.781264568    9.173207246   332.3291   4  12   1.6752   1.6485   3.3013   0.2194   0.3580   0.7653  -0.40    0.0
2024/06/18 07:18:04.600   48.781403913    9.172997060   371.9148   4   7   2.8189   2.8899   5.6374  -2.2937  -3.0421   3.0829  -0.40    0.0
2024/06/18 07:18:05.000   48.781253424    9.173202399   335.7408   4   9   1.6989   1.7001   3.9618  -0.1933  -0.8763   0.9797   0.00    0.0
2024/06/18 07:18:05.600   48.781304281    9.173318705   313.4725   4  10   1.6988   1.7001   3.9615  -0.1927  -0.8758   0.9793  -0.40    0.0
2024/06/18 07:18:06.000   48.781372871    9.173207523   330.1588   4   9   2.8186   2.8897   5.6363  -2.2933  -3.0413   3.0822   0.00    0.0
2024/06/18 07:18:06.400   48.781323652    9.173266152   316.7727   4   9   1.8393   1.8513   4.1590  -0.7440  -1.3019   1.3608   0.40    0.0
2024/06/18 07:18:06.800   48.781286174    9.173186880   306.7043   4   7   3.4070   2.9175   7.2190  -2.1184  -2.7259   4.2583  -0.20    0.0
2024/06/18 07:18:07.200   48.781259451    9.173240082   301.5827   4   8   3.1570   2.0969   7.1256  -1.3742  -2.2539   4.0805   0.20    0.0
2024/06/18 07:18:07.800   48.781347852    9.173344131   304.9051   4   9   3.9342   2.5425   7.1399   1.3118  -1.1315   4.5793  -0.20    0.0
2024/06/18 07:18:08.200   48.781202875    9.173279566   329.0283   4  12   1.8069   1.6822   3.2382  -0.7996   1.0363   0.6315   0.20    0.0
2024/06/18 07:18:09.000   48.781309655    9.173333740   317.7771   4  11   1.8169   1.8264   3.3347  -0.7100   0.7123   0.4972   0.00    0.0
2024/06/18 07:18:09.400   48.781234220    9.173257248   332.7859   4  11   1.8169   1.8264   3.3346  -0.7100   0.7124   0.4972   0.40    0.0
2024/06/18 07:18:09.800   48.781232218    9.173247114   333.6147   4  11   1.8169   1.8265   3.3345  -0.7099   0.7125   0.4971  -0.20    0.0
2024/06/18 07:18:11.400   48.781255931    9.173191298   310.6159   4   8   6.4857   2.5500  11.7176  -2.1103  -2.8256   8.1467   0.40    0.0
2024/06/18 07:18:11.800   48.781214783    9.173194933   325.7258   4  10   1.9296   2.0651   3.8574   0.3500   1.5420   1.2280  -0.20    0.0
2024/06/18 07:18:12.200   48.781280378    9.173283951   304.2324   4  10   1.9296   2.0652   3.8574   0.3501   1.5420   1.2280   0.20    0.0
2024/06/18 07:18:12.600   48.781261464    9.173270033   302.1510   4  10   1.9296   2.0652   3.8573   0.3502   1.5421   1.2280  -0.40    0.0
2024/06/18 07:18:13.200   48.781231669    9.173375523   312.1291   4  10   2.3686   3.3398   5.3807  -1.8662   3.4964  -1.9093   0.20    0.0
2024/06/18 07:18:13.600   48.781241232    9.173385955   311.9617   4  10   2.3686   3.3400   5.3807  -1.8664   3.4966  -1.9094  -0.40    0.0
2024/06/18 07:18:14.600   48.781204335    9.173137432   314.7587   4  11   1.8763   1.7724   3.6999   0.7745   1.1062   1.4135  -0.40    0.0
2024/06/18 07:18:15.400   48.781175886    9.173131594   315.5273   4  11   2.3304   1.9082   3.6353   1.3796   1.5085   1.6553   0.40    0.0
2024/06/18 07:18:15.800   48.781283760    9.173247534   305.9933   4  11   2.3303   1.9083   3.6353   1.3796   1.5086   1.6552  -0.20    0.0
2024/06/18 07:18:16.600   48.781299240    9.173355775   309.3896   4   9   3.0548   3.4688   5.4229  -1.3011   3.4073  -2.2249  -0.40    0.0
2024/06/18 07:18:17.600   48.781305487    9.173336690   308.8114   4   9   3.0550   3.4693   5.4231  -1.3018   3.4077  -2.2256  -0.40    0.0
2024/06/18 07:18:18.200   48.781317635    9.173299499   305.9912   4  10   2.4447   2.2609   3.7023   1.6733   1.1937   1.4894   0.20    0.0
2024/06/18 07:18:19.200   48.781312286    9.173305910   306.6275   4   9   3.0553   3.4700   5.4233  -1.3029   3.4084  -2.2267   0.20    0.0
2024/06/18 07:18:19.600   48.781129252    9.173026144   315.5504   4   9   2.5006   2.7853   4.1717   1.7260   2.1071   1.6383  -0.40    0.0
2024/06/18 07:18:20.800   48.781129463    9.173014810   315.4226   4   9   2.5007   2.7857   4.1717   1.7264   2.1074   1.6386  -0.20    0.0
2024/06/18 07:18:21.200   48.781313419    9.173306687   307.8687   4  10   2.4445   2.2612   3.7021   1.6735   1.1941   1.4886   0.20    0.0
2024/06/18 07:18:21.600   48.781155245    9.173067384   322.5423   4  10   2.4444   2.2612   3.7021   1.6736   1.1942   1.4885  -0.40    0.0
2024/06/18 07:18:22.000   48.781155463    9.173066730   322.7929   4  10   2.4444   2.2613   3.7020   1.6736   1.1942   1.4884   0.00    0.0
2024/06/18 07:18:23.000   48.781306858    9.173285090   307.9877   4  11   2.3300   1.9093   3.6344   1.3804   1.5098   1.6537   0.00    0.0
2024/06/18 07:18:23.400   48.781221742    9.173154288   323.5584   4  11   1.8760   1.7729   3.6993   0.7756   1.1096   1.4127   0.40    0.0
2024/06/18 07:18:24.000   48.781293903    9.173276516   307.8896   4  11   1.8760   1.7730   3.6993   0.7757   1.1098   1.4127   0.00    0.0
2024/06/18 07:18:24.400   48.781297322    9.173265650   309.3915   4  12   1.8706   1.6189   3.6066   0.7068   1.3516   1.4532   0.40    0.0
2024/06/18 07:18:24.800   48.781234221    9.173215205   325.9699   4  10   1.9292   2.0664   3.8554   0.3527   1.5444   1.2275  -0.20    0.0
2024/06/18 07:18:25.200   48.781248021    9.173219389   321.6936   4  11   1.8706   1.6189   3.6066   0.7069   1.3519   1.4532   0.20    0.0
2024/06/18 07:18:26.800   48.781322483    9.173288419   338.1276   4  10   2.3752   2.1487   3.5574  -1.5456  -0.9303   1.7198  -0.20    0.0
2024/06/18 07:18:28.000   48.781340310    9.173341109   312.5891   4  12   1.6723   1.3782   2.9255  -0.4412   0.9975   0.8557   0.00    0.0
2024/06/18 07:18:28.800   48.781332727    9.173334014   312.7500   4  11   1.7213   1.3940   3.0165  -0.3308   0.9173   0.6572  -0.20    0.0
2024/06/18 07:18:29.400   48.781342610    9.173344064   313.5190   4  11   1.7213   1.3940   3.0164  -0.3308   0.9174   0.6570   0.40    0.0
2024/06/18 07:18:29.800   48.781331531    9.173343961   310.8871   4  12   1.6461   1.3852   2.8862  -0.1742   0.9897  -0.0971  -0.20    0.0
2024/06/18 07:18:30.200   48.781333375    9.173345580   311.3614   4  13   1.5839   1.3711   2.8073  -0.3446   1.0545   0.5390   0.20    0.0
2024/06/18 07:18:30.800   48.781336262    9.173339918   311.2241   4  13   1.5839   1.3711   2.8073  -0.3445   1.0546   0.5388  -0.20    0.0
2024/06/18 07:18:31.200   48.781340544    9.173347103   311.3761   4  12   1.6460   1.3853   2.8860  -0.1741   0.9900  -0.1000   0.20    0.0
2024/06/18 07:18:31.800   48.781341413    9.173345110   310.6942   4  13   1.5838   1.3712   2.8071  -0.3444   1.0547   0.5384  -0.20    0.0
2024/06/18 07:18:32.200   48.781341654    9.173352152   310.3066   4  12   1.6460   1.3854   2.8858  -0.1740   0.9903  -0.1021   0.20    0.0
2024/06/18 07:18:32.600   48.781311080    9.173396156   316.5869   4  11   2.6183   2.2610   4.0148  -1.9029   2.3505  -2.1824  -0.40    0.0
2024/06/18 07:18:33.600   48.781336734    9.173349362   308.7164   4  12   1.6460   1.3855   2.8856  -0.1738   0.9906  -0.1049  -0.40    0.0
2024/06/18 07:18:34.200   48.781339064    9.173349275   309.0101   4  12   1.6459   1.3855   2.8855  -0.1738   0.9907  -0.1060   0.20    0.0
2024/06/18 07:18:34.600   48.781338892    9.173349932   308.6902   4  13   1.5837   1.3715   2.8067  -0.3442   1.0552   0.5374  -0.40    0.0
2024/06/18 07:18:35.000   48.781340704    9.173351245   308.6303   4  13   1.5837   1.3715   2.8066  -0.3441   1.0553   0.5372   0.00    0.0
2024/06/18 07:18:35.400   48.781340667    9.173351743   308.3190   4  13   1.5837   1.3716   2.8066  -0.3441   1.0554   0.5371   0.40    0.0
2024/06/18 07:18:36.400   48.781336288    9.173355079   307.7731   4  13   1.5836   1.3716   2.8064  -0.3440   1.0555   0.5367   0.40    0.0
2024/06/18 07:18:38.600   48.781331328    9.173356350   307.7761   4  13   1.5835   1.3718   2.8061  -0.3438   1.0559   0.5359  -0.40    0.0
2024/06/18 07:18:39.600   48.781310035    9.173325074   302.4978   4  12   1.7227   1.4967   3.0924   0.5363   1.3758   1.0810  -0.40    0.0
2024/06/18 07:18:41.800   48.781339393    9.173346919   306.5233   4  11   1.7212   1.3951   3.0140  -0.3309   0.9202   0.6530  -0.20    0.0
2024/06/18 07:18:42.200   48.781338037    9.173344867   306.4253   4  13   1.5834   1.3722   2.8056  -0.3435   1.0565   0.5345   0.20    0.0
2024/06/18 07:18:42.800   48.781344880    9.173344449   305.7742   4  12   1.6457   1.3862   2.8842  -0.1729   0.9925  -0.1216  -0.20    0.0
2024/06/18 07:18:43.400   48.781344511    9.173360285   306.6427   4  13   1.6439   1.2939   2.7017   0.0918   0.6952   0.2505   0.40    0.0
2024/06/18 07:18:44.000   48.781339359    9.173337996   305.3117   4  14   1.5812   1.1750   2.4753  -0.2507   0.4254   0.6225   0.00    0.0
2024/06/18 07:18:44.600   48.781349837    9.173347119   303.4339   4  13   1.6420   1.2007   2.5402   0.2155   0.2003   0.3668  -0.40    0.0
2024/06/18 07:18:45.200   48.781346148    9.173348362   303.9431   4  14   1.5812   1.1750   2.4751  -0.2503   0.4256   0.6223   0.20    0.0
2024/06/18 07:18:46.600   48.781357471    9.173370922   303.7051   4  14   1.5811   1.1750   2.4749  -0.2499   0.4258   0.6220  -0.40    0.0
2024/06/18 07:18:47.200   48.781391083    9.173410542   308.5251   4  14   1.5246   1.1402   2.3861  -0.4257  -0.0703   0.3341   0.20    0.0
2024/06/18 07:18:48.000   48.781408700    9.173401785   310.9282   4  12   1.8806   1.2849   2.7428  -0.9109  -0.8795   1.2548   0.00    0.0
2024/06/18 07:18:49.800   48.781379015    9.173429123   306.1598   4  14   1.5244   1.1402   2.3858  -0.4252  -0.0675   0.3332  -0.20    0.0
2024/06/18 07:18:50.200   48.781381846    9.173425635   306.5659   4  15   1.5258   1.1514   2.3826  -0.5537  -0.4649   0.3321   0.20    0.0
2024/06/18 07:18:50.800   48.781375660    9.173433649   304.7341   4  15   1.4812   1.1321   2.3039  -0.4791  -0.2974  -0.3350  -0.20    0.0
2024/06/18 07:18:51.400   48.781386091    9.173426204   305.5215   4  15   1.5223   1.1608   2.3667  -0.3731   0.2251   0.2796   0.40    0.0
2024/06/18 07:18:51.800   48.781379381    9.173433993   305.5502   4  15   1.5025   1.2152   2.3895  -0.3433  -0.6071  -0.5220  -0.20    0.0
2024/06/18 07:18:53.200   48.781387531    9.173447186   305.1464   4  14   1.5348   1.1537   2.3887  -0.3736  -0.4782  -0.6059   0.20    0.0
2024/06/18 07:18:54.600   48.781395830    9.173473057   304.3858   4  15   1.4795   1.2088   2.3538  -0.3885  -0.2374   0.4823  -0.40    0.0
2024/06/18 07:18:55.000   48.781397135    9.173477953   304.4655   4  15   1.4795   1.2088   2.3538  -0.3884  -0.2373   0.4822   0.00    0.0
2024/06/18 07:18:55.800   48.781399033    9.173488741   303.6434   4  15   1.4794   1.2088   2.3537  -0.3882  -0.2372   0.4820  -0.20    0.0
2024/06/18 07:18:56.800   48.781395475    9.173495807   303.3389   4  15   1.4355   1.1862   2.2866  -0.4834  -0.4311   0.1809  -0.20    0.0
2024/06/18 07:18:57.600   48.781399130    9.173499124   303.2549   4  15   1.4355   1.1862   2.2865  -0.4832  -0.4310   0.1805  -0.40    0.0
2024/06/18 07:18:58.200   48.781405127    9.173509606   303.6813   4  14   1.4383   1.3030   2.3553  -0.4298  -0.7004  -0.1365   0.20    0.0
2024/06/18 07:18:58.600   48.781403641    9.173519668   303.0697   4  13   1.5732   1.2897   2.4917  -0.7451  -0.8106   0.8507  -0.40    0.0
2024/06/18 07:18:59.000   48.781405923    9.173517624   302.7895   4  14   1.5708   1.1717   2.4014  -0.7135  -0.5468   0.8167   0.00    0.0
2024/06/18 07:18:59.600   48.781419234    9.173528507   304.9495   4  14   1.6050   1.2604   2.5567  -0.4053  -0.6423   0.4891  -0.40    0.0
2024/06/18 07:19:00.400   48.781421576    9.173532352   304.2968   4  15   1.5020   1.2149   2.3884  -0.3418  -0.6059  -0.5234   0.40    0.0
2024/06/18 07:19:00.800   48.781422457    9.173542312   304.6211   4  15   1.5376   1.2339   2.4636  -0.2141  -0.4866  -0.2742  -0.20    0.0
2024/06/18 07:19:02.000   48.781420671    9.173552185   303.4599   4  15   1.5019   1.2148   2.3882  -0.3415  -0.6057  -0.5237   0.00    0.0
2024/06/18 07:19:02.800   48.781426918    9.173569647   303.6481   4  14   1.5133   1.3576   2.4953  -0.0635  -0.8973  -0.6393  -0.20    0.0
2024/06/18 07:19:03.200   48.781428716    9.173570689   303.9524   4  14   1.5133   1.3576   2.4953  -0.0632  -0.8973  -0.6393   0.20    0.0
2024/06/18 07:19:04.000   48.781435707    9.173569720   305.1300   4  13   1.5639   1.4209   2.6195  -0.4118  -1.0675  -0.3068   0.00    0.0
2024/06/18 07:19:04.800   48.781348303    9.173323492   335.2951   4  11   2.0780   2.2733   3.4667  -0.9943  -2.2290   0.8169  -0.20    0.0
2024/06/18 07:19:05.400   48.781444239    9.173588641   304.3195   4  13   1.5638   1.4209   2.6193  -0.4118  -1.0674  -0.3070   0.40    0.0
2024/06/18 07:19:05.800   48.781440940    9.173601164   303.5410   4  14   1.5131   1.3574   2.4950  -0.0612  -0.8969  -0.6396  -0.20    0.0
2024/06/18 07:19:06.600   48.781438437    9.173614460   303.7194   4  14   1.5131   1.3573   2.4949  -0.0606  -0.8968  -0.6397  -0.40    0.0
2024/06/18 07:19:07.200   48.781445689    9.173615177   304.3931   4  14   1.5130   1.3573   2.4948  -0.0602  -0.8967  -0.6398   0.20    0.0
2024/06/18 07:19:07.800   48.781352020    9.173494567   323.7896   4  14   1.4377   1.3026   2.3545  -0.4281  -0.6997  -0.1440  -0.20    0.0
2024/06/18 07:19:08.600   48.781352218    9.173512480   323.1604   4  14   1.4377   1.3025   2.3544  -0.4280  -0.6996  -0.1446  -0.40    0.0
2024/06/18 07:19:09.400   48.781452827    9.173649398   303.7958   4  14   1.4376   1.3025   2.3544  -0.4278  -0.6996  -0.1452   0.40    0.0
2024/06/18 07:19:10.200   48.781455724    9.173659879   303.0927   4  12   1.6693   1.7015   3.2220  -0.2158  -1.7016  -0.5543   0.20    0.0
2024/06/18 07:19:11.600   48.781458371    9.173681997   304.3422   4  15   1.5212   1.1603   2.3643  -0.3694   0.2296   0.2717  -0.40    0.0
2024/06/18 07:19:12.000   48.781452844    9.173682377   303.4331   4  15   1.4801   1.1317   2.3014  -0.4758  -0.2932  -0.3411   0.00    0.0
2024/06/18 07:19:13.000   48.781455060    9.173694187   303.6214   4  14   1.5340   1.1531   2.3861  -0.3701  -0.4747  -0.6089   0.00    0.0
2024/06/18 07:19:13.400   48.781445738    9.173709137   303.7401   4  13   1.6625   1.2192   2.3943  -0.6251  -0.3833  -0.7055   0.40    0.0
2024/06/18 07:19:13.800   48.781449148    9.173697408   303.9465   4  13   1.5374   1.1904   2.5078  -0.4091   0.0550  -0.6712  -0.20    0.0
2024/06/18 07:19:14.200   48.781465161    9.173714185   304.6186   4  13   1.6572   1.2410   2.4710  -0.4705  -0.4870   0.1377   0.20    0.0
2024/06/18 07:19:15.400   48.781478845    9.173713944   303.5456   4  14   1.4922   1.1327   2.3756  -0.4850  -0.2380  -0.4795   0.40    0.0
2024/06/18 07:19:16.400   48.781474142    9.173738901   301.9152   4  11   2.0818   1.4893   2.8236  -1.1875  -0.8161   0.6649   0.40    0.0
2024/06/18 07:19:17.600   48.781484217    9.173759881   300.1515   4  11   1.9910   1.6767   3.5406  -1.0353  -1.7320   1.3132  -0.40    0.0
2024/06/18 07:19:18.800   48.781525229    9.173742982   303.2957   4  13   1.6463   1.2115   2.5740  -0.5990  -0.7636   0.4530  -0.20    0.0
2024/06/18 07:19:19.800   48.781532137    9.173731896   302.7724   4  13   1.6463   1.2114   2.5739  -0.5989  -0.7635   0.4529  -0.20    0.0
2024/06/18 07:19:20.600   48.781537298    9.173724496   303.5569   4  13   1.6463   1.2114   2.5738  -0.5989  -0.7634   0.4528  -0.40    0.0
2024/06/18 07:19:21.400   48.781554627    9.173703181   303.1347   4  13   1.6463   1.2114   2.5736  -0.5988  -0.7633   0.4527   0.40    0.0
2024/06/18 07:19:22.000   48.781547179    9.173691734   301.9812   4  13   1.7542   1.2841   2.5557  -0.8903  -0.8495   0.9504   0.00    0.0
2024/06/18 07:19:22.400   48.781565300    9.173675341   299.3409   4  10   3.6876   2.7269   3.3349  -2.8887   1.8959  -2.2755   0.40    0.0
2024/06/18 07:19:22.800   48.781540930    9.173695840   302.0507   4  12   2.4535   1.7044   2.5919  -1.6465  -0.7247   0.7475  -0.20    0.0
2024/06/18 07:19:23.200   48.781541657    9.173695548   300.8756   4  12   2.0151   1.4462   2.6641  -1.1287  -0.9991   0.8823   0.20    0.0
2024/06/18 07:19:23.600   48.781549367    9.173685135   302.4909   4  12   1.8997   1.3364   2.6011  -0.9393  -0.5047  -0.6934  -0.40    0.0
2024/06/18 07:19:24.000   48.781546917    9.173685034   302.7272   4  11   2.0609   1.4270   2.7116  -1.1323  -0.7988   0.3627   0.00    0.0
2024/06/18 07:19:25.000   48.781553044    9.173661501   303.7469   4  13   1.8346   1.3249   2.4916  -0.9838  -0.3532  -0.3362   0.00    0.0
2024/06/18 07:19:25.400   48.781572345    9.173646237   304.0488   4  12   1.8991   1.3080   2.6411  -0.9085  -0.5369  -0.5997   0.40    0.0
2024/06/18 07:19:26.400   48.782179188    9.172933239   246.6334   4  10   2.3670   1.9356   3.4712  -1.6688   1.4682  -1.5020   0.40    0.0
2024/06/18 07:19:26.800   48.781566229    9.173646253   301.9614   4  11   2.0612   1.4270   2.7113  -1.1324  -0.7988   0.3630  -0.20    0.0
2024/06/18 07:19:27.200   48.781592051    9.173614880   300.2268   4  11   3.6944   2.7324   3.3344  -2.8954   1.8990  -2.2787   0.20    0.0
2024/06/18 07:19:27.800   48.781576707    9.173624198   302.0654   4  13   1.8978   1.3970   2.6547  -1.0736   0.5444  -0.6132  -0.20    0.0
2024/06/18 07:19:28.200   48.781570841    9.173633258   300.1560   4  11   2.2433   2.2216   3.9599  -1.3959  -2.0341   0.8529   0.20    0.0
2024/06/18 07:19:28.600   48.781583998    9.173618643   301.9251   4  12   1.9710   1.4435   2.7447  -1.0810   0.4747  -0.9709  -0.40    0.0
2024/06/18 07:19:29.800   48.781478053    9.173339652   338.9748   4  10   2.1866   2.5348   3.5417  -1.3225  -2.0709   0.4775  -0.20    0.0
2024/06/18 07:19:30.200   48.781561037    9.173609584   303.6074   4  11   1.9999   1.7296   3.1731  -0.8727  -1.1482   1.0918   0.20    0.0
2024/06/18 07:19:30.600   48.781563951    9.173636176   299.8471   4  11   2.6706   2.0010   3.4549  -1.8074   1.5958  -2.2118  -0.40    0.0
2024/06/18 07:19:31.000   48.781612001    9.173579489   299.1723   4  11   2.8109   2.1723   3.7471  -1.9692   1.6215  -2.0597   0.00    0.0
2024/06/18 07:19:31.800   48.781562494    9.173611687   302.7891   4  10   2.1358   1.8459   3.6164  -0.5217  -1.4788  -0.5370  -0.20    0.0
2024/06/18 07:19:32.200   48.781567287    9.173586452   304.1789   4  10   2.8892   2.1541   3.7580  -2.0286   1.5785  -2.2908   0.20    0.0
2024/06/18 07:19:32.600   48.781568622    9.173568457   305.6229   4  11   1.8718   1.4876   3.0600  -0.8537  -0.9377  -0.7995  -0.40    0.0
2024/06/18 07:19:33.000   48.781579310    9.173545939   307.0701   4  12   1.6709   1.5054   2.9746   0.4994  -1.1114  -1.2458   0.00    0.0
2024/06/18 07:19:34.400   48.781595183    9.173538995   303.2627   4  12   1.9101   1.4882   2.8669   0.7149  -0.7994  -1.3884   0.40    0.0
2024/06/18 07:19:34.800   48.781599178    9.173542951   303.7842   4  12   2.1463   2.0075   3.5689   1.3597  -2.0080  -1.8968  -0.20    0.0
2024/06/18 07:19:35.200   48.781600854    9.173585935   300.5756   4   8   2.8483   3.8795   6.5562   2.2839  -4.3209  -2.1946   0.20    0.0
2024/06/18 07:19:35.600   48.781485857    9.172742948   381.9889   4   8   2.4613   2.2499   3.5903  -1.1050  -1.4631  -0.3942  -0.40    0.0
2024/06/18 07:19:36.800   48.781463758    9.172697721   356.8872   4   8   2.3458   2.2993   3.4444  -1.0904  -1.3092  -1.0530  -0.20    0.0
2024/06/18 07:19:37.200   48.781647651    9.173514059   300.0876   4  11   4.2090   2.0599   4.6627  -2.1518   1.9323  -3.8703   0.20    0.0
2024/06/18 07:19:38.000   48.781634713    9.173487750   303.6150   4  11   2.7432   2.1007   3.8284  -1.6989   1.2289  -2.4331   0.00    0.0
2024/06/18 07:19:38.600   48.781600297    9.173478896   311.3218   4  12   1.7959   1.5498   2.8507  -0.2399  -0.9955  -1.2478  -0.40    0.0
2024/06/18 07:19:39.000   48.781602026    9.173487115   309.2691   4  11   2.4942   2.0091   3.3628   1.4599  -1.6363  -2.0301   0.00    0.0
2024/06/18 07:19:39.600   48.781616913    9.173467963   309.3127   4  11   2.1455   2.0224   3.5001   1.3186  -1.9907  -1.8411  -0.40    0.0
2024/06/18 07:19:40.000   48.781703842    9.173454091   296.6723   4   9   7.5866   2.1056   8.9904  -1.3820   0.6011  -7.9862   0.00    0.0
2024/06/18 07:19:41.800   48.781691124    9.173509438   303.5005   4   9   2.3299   2.0187   4.4609  -0.5693  -0.4777   0.4380  -0.20    0.0
2024/06/18 07:19:42.200   48.781644287    9.173462280   305.0608   4  12   1.8156   1.6310   3.0499  -0.4418  -1.2419  -1.1239   0.20    0.0
2024/06/18 07:19:43.000   48.781646875    9.173438338   308.0393   4  11   2.8154   2.1380   3.5078  -1.9848   1.4496  -2.0876   0.00    0.0
2024/06/18 07:19:43.600   48.781675773    9.173458948   306.4514   4  12   1.7935   1.5232   2.7793   0.4567  -1.0807  -1.0241  -0.40    0.0
2024/06/18 07:19:44.000   48.781646043    9.173431601   307.6585   4  13   1.7279   1.3383   2.5761  -0.3752  -0.6397  -0.7401   0.00    0.0
2024/06/18 07:19:45.200   48.781671338    9.173414049   305.0974   4  13   1.6651   1.5515   2.9032   0.5875  -0.9373  -0.9998   0.20    0.0
2024/06/18 07:19:45.800   48.781694252    9.173418685   305.9692   4  10   2.6172   2.3148   4.2902   1.4593  -2.2638  -1.6879  -0.20    0.0
2024/06/18 07:19:46.200   48.781684284    9.173409227   305.6118   4  12   1.8189   1.5998   2.9402   0.2428  -0.8341  -1.1581   0.20    0.0
2024/06/18 07:19:46.600   48.781717309    9.173430191   303.3120   4  11   2.4919   2.0072   3.3606   1.4574  -1.6336  -2.0282  -0.40    0.0
2024/06/18 07:19:47.000   48.781674395    9.173400136   306.7252   4  12   1.7930   1.5227   2.7785   0.4565  -1.0800  -1.0236   0.00    0.0
2024/06/18 07:19:47.400   48.781694193    9.173395148   307.4122   4  11   1.7669   1.5910   3.0497   0.5979  -1.2881  -0.3324   0.40    0.0
2024/06/18 07:19:48.400   48.781674997    9.173329496   309.4534   4   8   2.6764   1.8571   3.8483   0.8772   0.5577   2.0110   0.40    0.0
2024/06/18 07:19:51.600   48.781703192    9.173341877   301.6927   4  11   1.9927   1.4191   2.9175  -0.3215  -0.9594  -0.8727  -0.40    0.0
2024/06/18 07:19:52.200   48.781733687    9.173333265   304.1238   4  12   1.7394   1.3588   3.0500  -0.4143  -1.0786   0.5069   0.20    0.0
2024/06/18 07:19:52.800   48.781703541    9.173319435   302.6453   4  11   1.8157   1.3872   2.7492   0.1666  -0.4224  -0.7092  -0.20    0.0
2024/06/18 07:19:53.400   48.781727009    9.173306337   307.3047   4  11   2.0164   1.4440   3.1898  -0.6946  -1.0458   0.9504   0.40    0.0
2024/06/18 07:19:54.400   48.781738428    9.173296729   306.5774   4  12   1.8093   1.3839   2.8642  -0.5539  -0.8592  -0.5738   0.40    0.0
2024/06/18 07:19:54.800   48.781740043    9.173316913   300.1036   4  11   2.0163   1.4440   3.1896  -0.6946  -1.0457   0.9508  -0.20    0.0
2024/06/18 07:19:55.400   48.781722233    9.173326496   298.8660   4   9   2.0430   1.7990   3.9908  -0.5248  -1.5114   0.3504   0.40    0.0
2024/06/18 07:19:56.000   48.781737671    9.173272098   304.2419   4  11   1.8750   1.2922   2.6834  -0.8059  -0.7131   0.7548   0.00    0.0
2024/06/18 07:19:57.000   48.781733780    9.173252507   304.9572   4  12   1.7973   1.2910   2.5694  -0.8239  -0.7424   0.3961   0.00    0.0
2024/06/18 07:19:58.000   48.781740503    9.173232256   306.2908   4  12   1.7170   1.2140   2.6831  -0.5620  -0.7165   0.7606   0.00    0.0
2024/06/18 07:19:59.000   48.781731477    9.173249904   297.4341   4  11   2.0844   1.5962   3.1285  -1.2098   1.0669  -1.0771   0.00    0.0
2024/06/18 07:19:59.800   48.781524235    9.172433820   362.4962   4   7   6.4400   4.0590   6.0152  -4.8111   4.2592  -5.3861  -0.20    0.0
2024/06/18 07:20:01.600   48.781720702    9.173176782   303.8555   4  14   1.5723   1.1727   2.4612  -0.4568  -0.5961  -0.3971  -0.40    0.0
2024/06/18 07:20:02.000   48.781715333    9.173177408   302.5757   4  13   1.6064   1.2127   2.4104  -0.5604  -0.6015  -0.4421   0.00    0.0
2024/06/18 07:20:02.400   48.781703337    9.173181056   302.0720   4  13   1.9112   1.3143   2.8344  -0.8590  -0.9868   1.1605   0.40    0.0
2024/06/18 07:20:03.200   48.781702702    9.173164421   303.1052   4  14   1.5568   1.1915   2.3254  -0.6349  -0.4677   0.2351   0.20    0.0
2024/06/18 07:20:05.000   48.781717848    9.173158074   297.2010   4  13   1.5879   1.1807   2.4575  -0.4889  -0.6135  -0.3515   0.00    0.0
2024/06/18 07:20:05.600   48.781698218    9.173148523   297.2804   4  11   1.7444   1.4408   3.1634  -0.5450  -0.7174   0.2708  -0.40    0.0
2024/06/18 07:20:06.600   48.781677634    9.173160774   295.0000   4  12   1.7970   1.2909   2.5681  -0.8233  -0.7423   0.3967  -0.40    0.0
2024/06/18 07:20:07.200   48.781687786    9.173119836   302.6400   4  14   1.6353   1.1951   2.5408  -0.3225  -0.4561   0.3559   0.20    0.0
2024/06/18 07:20:07.600   48.781691176    9.173105386   303.0569   4  13   1.7150   1.2077   2.6663  -0.1187  -0.2596   0.7378  -0.40    0.0
2024/06/18 07:20:08.000   48.781682905    9.173097165   303.5563   4  12   2.1513   1.3211   3.0357  -0.5934   0.3712   1.6480   0.00    0.0
2024/06/18 07:20:08.400   48.781680872    9.173085416   303.9399   4  12   2.1513   1.3211   3.0356  -0.5934   0.3711   1.6481   0.40    0.0
2024/06/18 07:20:09.000   48.781686693    9.173069096   305.3086   4  11   2.2057   1.7478   3.8284  -0.4159  -1.5841   1.4885   0.00    0.0
2024/06/18 07:20:09.400   48.781685017    9.173060237   305.3097   4  11   2.0068   1.7442   3.4949  -0.5238  -1.6377   0.8864   0.40    0.0
2024/06/18 07:20:09.800   48.781671836    9.173065506   303.1002   4  14   1.5772   1.1742   2.4641  -0.2196   0.4390   0.6066  -0.20    0.0
2024/06/18 07:20:10.200   48.781673271    9.173052021   304.5546   4  12   2.0067   1.7441   3.4948  -0.5240  -1.6376   0.8867   0.20    0.0
2024/06/18 07:20:10.600   48.781666893    9.173053474   304.5059   4  15   1.5336   1.2312   2.4554  -0.1943  -0.4751  -0.2968  -0.40    0.0
2024/06/18 07:20:11.400   48.781622992    9.172935838   322.5434   4  11   2.1569   1.6099   3.4707  -0.6985  -1.1879   1.7219   0.40    0.0
2024/06/18 07:20:11.800   48.781662897    9.173036251   303.4472   4  10   2.2048   1.4680   3.3371  -0.4867  -0.8548   1.5308  -0.20    0.0
2024/06/18 07:20:12.200   48.781656784    9.173024152   302.3064   4  11   2.1624   1.5888   3.4697  -0.4929   0.6731   1.7480   0.20    0.0
2024/06/18 07:20:12.600   48.781651705    9.173022494   303.7549   4  13   1.9303   1.4077   2.9560  -0.8057  -0.8904   1.2609  -0.40    0.0
2024/06/18 07:20:13.000   48.781655321    9.173026529   303.6377   4  13   1.9303   1.4077   2.9560  -0.8057  -0.8905   1.2609   0.00    0.0
2024/06/18 07:20:13.400   48.781635108    9.173024855   300.2630   4  11   3.7156   1.4991   4.6247  -0.8807  -1.3901   3.4622   0.40    0.0
2024/06/18 07:20:15.600   48.781641885    9.172993275   304.3772   4  13   1.6165   1.2637   2.5643   0.3244  -0.7090  -0.6546  -0.40    0.0
2024/06/18 07:20:16.000   48.781634664    9.172981991   304.5389   4  14   1.5431   1.2222   2.4520  -0.2222  -0.5115  -0.2593   0.00    0.0
2024/06/18 07:20:16.400   48.781638594    9.172989283   303.3365   4  12   2.1914   2.1688   3.8573  -1.3236  -2.3100   1.4942   0.40    0.0
2024/06/18 07:20:17.800   48.781629004    9.172958386   303.9555   4  11   1.7923   1.5218   2.7975  -0.4583  -0.9502   0.7102  -0.20    0.0
2024/06/18 07:20:18.800   48.781624011    9.172934977   305.0462   4  12   3.6740   1.4353   4.5550  -1.0113  -1.2591   3.5297  -0.20    0.0
2024/06/18 07:20:19.400   48.781621771    9.172927964   304.0292   4  12   2.4982   1.4985   3.8551  -0.8300  -1.3607   2.2277   0.40    0.0
2024/06/18 07:20:20.000   48.781640680    9.172926534   306.9770   4  13   2.2767   2.1159   3.8990  -1.2664  -2.2192   1.6377   0.00    0.0
2024/06/18 07:20:20.800   48.781628611    9.172929197   302.4070   4  12   2.3637   3.3755   5.8721   1.3782  -4.0456  -1.2366  -0.20    0.0
2024/06/18 07:20:21.800   48.781627567    9.172901423   305.4697   4  14   1.6427   1.2894   2.6045   0.4503  -0.5881  -0.5419  -0.20    0.0
2024/06/18 07:20:22.200   48.781623732    9.172888494   306.0268   4  14   1.6427   1.2894   2.6045   0.4503  -0.5880  -0.5419   0.20    0.0
2024/06/18 07:20:22.800   48.781617971    9.172889554   305.8253   4  14   1.6772   1.2886   2.5782   0.4852   0.3026   0.6585  -0.20    0.0
2024/06/18 07:20:23.200   48.781618915    9.172883702   305.6541   4  15   1.5631   1.2455   2.5059   0.1854  -0.3298   0.2547   0.20    0.0
2024/06/18 07:20:23.600   48.781632993    9.172880403   305.7450   4  12   2.1022   1.7394   3.5598  -0.2759  -1.5139   1.1364  -0.40    0.0
2024/06/18 07:20:24.000   48.781606655    9.172867125   304.0395   4  13   1.7204   1.4327   2.5863   0.6417  -0.6986  -0.2274   0.00    0.0
2024/06/18 07:20:24.600   48.781606293    9.172849762   306.1896   4  13   1.7577   1.3338   2.6688   0.6457  -0.3816   0.2667  -0.40    0.0
2024/06/18 07:20:25.000   48.781613939    9.172835482   307.9366   4  13   2.0326   1.4340   3.0282  -0.6341  -0.6880   1.4254   0.00    0.0
2024/06/18 07:20:25.800   48.781608157    9.172822603   307.0679   4  13   1.9304   1.4075   2.9549  -0.8051  -0.8909   1.2620  -0.20    0.0
2024/06/18 07:20:26.800   48.781571073    9.172821790   302.3216   4  11   4.5647   1.4309   4.9223  -1.4477  -1.4119   4.2797  -0.20    0.0
2024/06/18 07:20:27.200   48.781607680    9.172821815   305.7102   4  10   1.7871   1.5243   2.8256  -0.9400  -1.1120   1.0599   0.20    0.0
2024/06/18 07:20:27.600   48.781584757    9.172808229   303.1006   4  11   1.7419   1.2960   2.6999   0.5322  -0.6119  -0.5784  -0.40    0.0
2024/06/18 07:20:28.000   48.781608069    9.172814876   303.1558   4   9   1.9274   1.7513   3.4636  -0.5107  -1.7216  -0.5682   0.00    0.0
2024/06/18 07:20:28.400   48.781599351    9.172807043   304.4033   4  12   1.5623   1.2216   2.5104  -0.5459  -0.4975   0.6810   0.40    0.0
2024/06/18 07:20:28.800   48.781598233    9.172802688   303.9199   4  11   1.6970   1.2981   2.7637  -0.0985  -0.8686  -0.5464  -0.20    0.0
2024/06/18 07:20:29.200   48.781590521    9.172799378   302.2441   4  11   2.0343   1.6997   3.3964   0.5902  -1.3201   0.6770   0.20    0.0
2024/06/18 07:20:29.600   48.781584697    9.172792127   303.5781   4   9   2.6598   1.6838   3.9406   0.7337   0.8692   2.0755  -0.40    0.0
2024/06/18 07:20:30.000   48.781622006    9.172773475   309.2055   4   9   3.9991   2.1142   6.0629  -1.7242  -2.7890   4.2160   0.00    0.0
2024/06/18 07:20:30.600   48.781597252    9.172773023   305.7348   4  13   1.8242   1.2778   2.7807  -0.5449  -0.5739   1.3437  -0.40    0.0
2024/06/18 07:20:32.000   48.781615368    9.172726245   307.0724   4  12   2.1499   2.3617   3.8567  -1.3440  -2.3703   1.4452   0.00    0.0
2024/06/18 07:20:33.000   48.781603924    9.172707596   307.6736   4  11   2.4165   2.1888   4.2422  -1.4372  -2.4223   2.0125   0.00    0.0
2024/06/18 07:20:33.600   48.781587638    9.172747639   298.8921   4  11   2.1143   1.3113   2.9820  -0.6420   0.4703   1.7175  -0.40    0.0
2024/06/18 07:20:34.000   48.781597467    9.172526985   338.8646   4  10   2.9006   1.8689   4.1425  -1.6530  -1.8884   2.8827   0.00    0.0
2024/06/18 07:20:35.200   48.781561766    9.172686018   300.5725   4  11   2.6842   2.0451   4.9620   1.0178   2.5348   2.5549   0.20    0.0
2024/06/18 07:20:35.600   48.781594058    9.172709566   299.6454   4  13   1.7903   1.2054   2.7563  -0.5239  -0.3693   1.1886  -0.40    0.0
2024/06/18 07:20:37.200   48.781568899    9.172658763   303.9942   4  11   2.7026   1.8583   4.4140  -0.8843   1.7784   2.4684   0.20    0.0
2024/06/18 07:20:37.600   48.781471340    9.172296613   333.6714   4   8   5.2477   6.4448   4.3662  -5.3254   3.5880  -2.5515  -0.40    0.0
2024/06/18 07:20:38.200   48.781584813    9.172686153   301.9497   4  10   2.0794   1.6040   3.8975  -0.8406  -0.9014   1.5822   0.20    0.0
2024/06/18 07:20:38.600   48.781563839    9.172640025   305.5762   4  12   2.1364   2.1432   3.8134  -1.2523  -2.2462   1.3992  -0.40    0.0
2024/06/18 07:20:39.000   48.781552440    9.172475782   329.3578   4  11   2.4056   1.9702   3.7702  -1.5186  -2.0038   2.1323   0.00    0.0
2024/06/18 07:20:40.200   48.781566297    9.172607922   307.9947   4  13   2.0733   1.5746   2.8061  -1.2632  -1.1707   1.5057   0.20    0.0
2024/06/18 07:20:42.800   48.781302485    9.172539369   341.8299   4   9   3.1028   4.6317   6.8159  -1.9918   4.9636  -0.8683  -0.20    0.0
2024/06/18 07:20:43.400   48.781255892    9.172089949   293.2671   4   8   2.7829  10.7171  15.0344   2.1088  12.4889   2.7220   0.40    0.0
2024/06/18 07:20:44.200   48.781538887    9.172599099   299.8343   4  10   2.0972   1.5348   2.9980  -0.8271  -1.0244   1.5600   0.20    0.0
2024/06/18 07:20:45.600   48.781530669    9.172551715   305.6525   4  11   1.9533   1.6057   3.1628  -0.7636  -1.2497   1.2931  -0.40    0.0
2024/06/18 07:20:46.000   48.781712549    9.172422979   364.2156   4   9   6.2601   1.9664  10.3318  -0.4467  -0.7151   7.7051   0.00    0.0
2024/06/18 07:20:47.400   48.781516347    9.172521564   305.1335   4   9   2.4674   1.5496   3.4451  -0.6380  -0.8299   2.1542   0.40    0.0
2024/06/18 07:20:47.800   48.781516560    9.172528552   303.7325   4  12   1.9163   1.9817   3.7753  -0.5033   1.7887   1.2058  -0.20    0.0
2024/06/18 07:20:48.400   48.781504189    9.172194555   356.9874   4   7  10.2936   2.2041  13.7846   1.3131   1.4867  11.6882   0.40    0.0
2024/06/18 07:20:48.800   48.781452642    9.172147658   347.7950   4   7   3.8569   2.4642   4.3755  -2.4164  -2.6415   3.4169  -0.20    0.0
2024/06/18 07:20:50.000   48.781470849    9.172518736   290.5811   4  10   6.0226   2.2088   9.8229   0.2188   1.9939   7.2923   0.00    0.0
2024/06/18 07:20:51.600   48.781482852    9.172493186   294.2809   4  11   3.7259   1.4980   4.6360  -0.8926  -1.3966   3.4768  -0.40    0.0
2024/06/18 07:20:52.000   48.780754946    9.172205040   255.4049   4   7   7.0885   2.1776  10.2516   2.0509   2.2958   8.2358   0.00    0.0
2024/06/18 07:20:52.400   48.781504143    9.172507055   300.0010   4  10   2.1229   2.2033   4.1457   0.7902   2.2022   1.7367   0.40    0.0
2024/06/18 07:20:52.800   48.781472102    9.172453108   300.7548   4  11   2.1694   1.4070   3.0114   0.8701  -0.3948   1.2026  -0.20    0.0
2024/06/18 07:20:54.000   48.781493289    9.172440665   304.3523   4  12   1.8951   1.3762   2.6308  -0.8607  -0.7636   1.1684   0.00    0.0
2024/06/18 07:20:54.600   48.781460658    9.172414488   301.9077   4  10   4.9436   1.7149   7.6947   1.3832   1.7812   5.6574  -0.40    0.0
2024/06/18 07:20:56.000   48.781498908    9.172427824   298.7914   4  14   1.6534   1.1832   2.4899  -0.3340   0.4510   1.0064   0.00    0.0
2024/06/18 07:20:56.800   48.781487103    9.172423777   296.8487   4  11   2.4952   1.3226   3.4850  -0.7194  -0.8282   2.1457  -0.20    0.0
2024/06/18 07:20:58.200   48.781464389    9.172333506   311.8914   4  13   1.6814   1.3026   2.7016  -0.5768  -0.8376   0.9253   0.20    0.0
2024/06/18 07:20:58.800   48.781504733    9.172367381   305.6148   4  12   1.7950   1.2902   2.5612  -0.8197  -0.7417   0.4001  -0.20    0.0
2024/06/18 07:20:59.200   48.781496194    9.172370303   304.5916   4  14   1.5930   1.2283   2.2956  -0.7906  -0.3515   0.5641   0.20    0.0
2024/06/18 07:20:59.600   48.781470029    9.172362068   301.4598   4  12   2.4958   1.3226   3.4855  -0.7195  -0.8283   2.1467  -0.40    0.0
2024/06/18 07:21:00.000   48.781490666    9.172362313   303.8082   4  12   1.7304   1.1976   2.6309  -0.1473  -0.3414   0.7161   0.00    0.0
2024/06/18 07:21:00.400   48.781511409    9.172340927   305.0328   4  13   1.8144   1.2790   2.5850  -0.8510  -0.6185   0.9454   0.40    0.0
2024/06/18 07:21:00.800   48.781440279    9.172314671   315.0808   4  11   1.8697   1.3082   2.6382  -0.9211  -0.2790   0.6376  -0.20    0.0
2024/06/18 07:21:01.200   48.781439145    9.172297590   313.7071   4  12   1.6611   1.2338   2.4722  -0.6897   0.5668  -0.6192   0.20    0.0
2024/06/18 07:21:03.000   48.781409163    9.172262321   312.5555   4  13   1.5685   1.1731   2.3890  -0.7062  -0.5428   0.8048   0.00    0.0
2024/06/18 07:21:03.400   48.781504291    9.172282487   303.5394   4  10   3.9100   3.5097   3.9596  -3.2801  -0.7433  -1.9669   0.40    0.0
2024/06/18 07:21:03.800   48.781479670    9.172321264   294.9293   4  13   1.8869   1.2857   2.7334  -0.9063  -0.8776   1.2601  -0.20    0.0
2024/06/18 07:21:04.400   48.781489357    9.172292122   305.3904   4  14   1.5926   1.2282   2.2951  -0.7900  -0.3516   0.5637   0.40    0.0
2024/06/18 07:21:04.800   48.781494138    9.172284547   304.9287   4  15   1.4762   1.1383   2.2948  -0.5902  -0.3263   0.5437  -0.20    0.0
2024/06/18 07:21:05.200   48.781496526    9.172262998   302.5003   4  12   2.0400   1.4748   2.4242  -1.2893  -0.1858   0.4958   0.20    0.0
2024/06/18 07:21:05.600   48.781490900    9.172258479   302.8259   4  13   2.3819   1.7063   2.5034  -1.6485  -0.7555   1.0070  -0.40    0.0
2024/06/18 07:21:07.200   48.781487406    9.172245931   305.2003   4  13   1.6296   1.2816   2.4823  -0.6531  -0.3018  -0.6216   0.20    0.0
2024/06/18 07:21:07.800   48.781422268    9.172058060   334.4709   4  13   2.0275   1.9442   2.8980  -1.4876  -1.4740   1.3482  -0.20    0.0
2024/06/18 07:21:08.800   48.781492107    9.172214828   305.8683   4  13   1.6283   1.3219   2.5405  -0.3874  -0.8882  -0.6640  -0.20    0.0
2024/06/18 07:21:09.200   48.781476618    9.172209626   303.6453   4  12   1.9147   1.4969   3.0983  -0.8462  -1.3689   1.1497   0.20    0.0
2024/06/18 07:21:09.600   48.781488444    9.172198977   303.4201   4  13   1.6283   1.3218   2.5404  -0.3873  -0.8881  -0.6640  -0.40    0.0
2024/06/18 07:21:10.000   48.781473842    9.172212596   304.8680   4  11   2.0149   1.6526   2.9314  -1.1474  -1.4163   0.9421   0.00    0.0
2024/06/18 07:21:10.400   48.781480531    9.172210043   304.4476   4  12   1.9864   1.6749   2.6771  -1.3461  -1.0382   1.1695   0.40    0.0
2024/06/18 07:21:12.000   48.781494556    9.172154485   305.1363   4  11   2.2317   1.6119   2.8351  -1.2414  -0.8710  -0.9019   0.00    0.0
2024/06/18 07:21:13.200   48.781478739    9.172159480   306.5042   4  14   1.5925   1.2929   2.6223  -0.2322  -0.9231  -0.6469   0.20    0.0
2024/06/18 07:21:14.800   48.781474955    9.172147156   303.4584   4  12   2.1171   1.6026   2.6487  -1.2896  -0.7646  -0.3149  -0.20    0.0
2024/06/18 07:21:15.200   48.781451877    9.172165750   304.0124   4  13   2.0177   2.1345   3.5999  -1.2095  -2.1978   1.0565   0.20    0.0
2024/06/18 07:21:15.600   48.781509126    9.172038919   292.7196   4  10   5.3263   6.1809   4.0761  -5.3995   2.1163  -2.7221  -0.40    0.0
2024/06/18 07:21:16.200   48.781464638    9.172138672   298.4206   4  13   1.6553   1.3266   2.4525  -0.6969  -0.7222  -0.1614   0.20    0.0
2024/06/18 07:21:16.600   48.781449900    9.172123559   303.3437   4  13   2.1424   1.6266   2.9877  -1.2788  -1.3751   1.4990  -0.40    0.0
2024/06/18 07:21:17.200   48.781460681    9.172139172   294.9466   4  13   2.1254   1.4151   2.7698  -1.1823  -0.7089   1.0710   0.20    0.0
2024/06/18 07:21:18.200   48.781467256    9.172089613   305.6942   4  15   1.5196   1.1499   2.3659  -0.5358  -0.4473   0.2868   0.20    0.0
2024/06/18 07:21:19.400   48.781462538    9.172074365   304.6487   4  14   1.5697   1.1711   2.4518  -0.4467  -0.5856  -0.4140   0.40    0.0
2024/06/18 07:21:19.800   48.781483407    9.172108110   297.7603   4  10   5.3705   1.7920   4.5658  -2.2645  -1.5257   4.1320  -0.20    0.0
2024/06/18 07:21:20.400   48.781471078    9.172133311   302.0041   4  12   2.7837   1.8770   4.7868  -0.9463   1.8548   2.2423   0.40    0.0
2024/06/18 07:21:21.200   48.781462020    9.172055126   304.6738   4  12   1.7941   1.2899   2.5584  -0.8181  -0.7414   0.4015   0.20    0.0
2024/06/18 07:21:22.800   48.781471697    9.172019259   304.3140   4  13   1.8131   1.7344   3.1965  -0.6043  -1.6649  -0.5841  -0.20    0.0
2024/06/18 07:21:23.200   48.781459108    9.172011554   303.9274   4  14   1.7356   1.2777   2.4602  -0.8657  -0.6523   0.6927   0.20    0.0
2024/06/18 07:21:24.200   48.781468699    9.171996257   304.5836   4  14   1.5920   1.2923   2.6208  -0.2308  -0.9214  -0.6477   0.20    0.0
2024/06/18 07:21:25.600   48.781475331    9.171969517   304.6901   4  14   1.6377   1.2362   2.3652  -0.7508  -0.4552   0.3027  -0.40    0.0
2024/06/18 07:21:26.000   48.781477379    9.171962979   304.3972   4  14   1.6377   1.2362   2.3652  -0.7508  -0.4552   0.3026   0.00    0.0
